City_ID,City,City latitude,City longitude,Max temperature,Humidity,Cloud coverage,Wind speed,City country,City datetime
0,Punta Arenas,-53.15,-70.9167,30.31,86,0,8.05,CL,1660208147
1,Harper,4.375,-7.7169,76.62,78,100,7.2,LR,1660207956
2,Presidencia Roque Sáenz Peña,-26.7852,-60.4388,45.03,96,94,5.35,AR,1660208148
3,Fortuna,40.5982,-124.1573,61.99,66,100,0.0,US,1660208150
4,Tuatapere,-46.1333,167.6833,35.33,90,7,3.67,NZ,1660208151
5,Bangarapet,12.9667,78.2,83.21,51,90,23.82,IN,1660208152
6,Khatanga,71.9667,102.5,46.13,56,100,11.07,RU,1660208153
7,Radom,51.4025,21.1471,76.12,54,9,4.0,PL,1660208153
8,Thompson,55.7435,-97.8558,46.56,100,0,0.0,CA,1660208155
9,Rikitea,-23.1203,-134.9692,73.2,73,100,22.06,PF,1660208156
10,Puerto Ayora,-0.7393,-90.3518,67.55,98,100,10.51,EC,1660208157
11,Salalah,17.0151,54.0924,80.15,84,100,11.16,OM,1660208158
12,Karabulak,43.3036,44.8964,81.59,36,0,4.63,RU,1660208159
13,San Quintín,30.4833,-115.95,71.26,84,65,8.14,MX,1660208160
14,Bilma,18.6853,12.9164,100.0,10,31,15.37,NE,1660208161
15,Kroya,-7.6331,109.2461,80.29,83,59,11.97,ID,1660208164
16,Castro,-24.7911,-50.0119,42.8,97,59,4.05,BR,1660207982
17,Jamestown,42.097,-79.2353,64.71,72,0,6.91,US,1660207914
18,Takhtamygda,54.1,123.5667,58.1,95,100,2.98,RU,1660208166
19,New Norfolk,-42.7826,147.0587,53.1,76,91,3.0,AU,1660208167
20,Bluff,-46.6,168.3333,39.97,78,7,10.27,NZ,1660208168
21,Faya,18.3851,42.4509,81.12,39,81,7.34,SA,1660208168
22,Chui,-33.6971,-53.4616,48.07,94,23,1.72,UY,1660207872
23,Busselton,-33.65,115.3333,58.86,69,47,1.36,AU,1660208170
24,Port Alfred,-33.5906,26.891,63.18,84,100,1.99,ZA,1660208055
25,Ushuaia,-54.8,-68.3,33.46,93,75,2.3,AR,1660207888
26,Butaritari,3.0707,172.7902,81.86,72,38,14.47,KI,1660208172
27,Hilo,19.7297,-155.09,82.27,97,100,4.61,US,1660207882
28,Ribeira Grande,38.5167,-28.7,72.0,78,20,2.3,PT,1660208174
29,Constitución,-35.3333,-72.4167,46.22,83,0,5.77,CL,1660208174
30,Russell,32.3502,-85.1999,72.68,94,40,3.44,US,1660208102
31,Qurayyat,31.3318,37.3428,86.18,42,0,13.8,SA,1660208176
32,Athabasca,54.7169,-113.2854,59.63,89,0,3.47,CA,1660208177
33,Klaksvík,62.2266,-6.589,52.72,78,100,11.79,FO,1660208178
34,Mogadishu,2.0371,45.3438,82.27,74,40,19.57,SO,1660208178
35,Nome,64.5011,-165.4064,49.15,95,71,3.56,US,1660208059
36,Pinega,64.7001,43.3936,65.14,61,100,11.1,RU,1660208180
37,Torbay,47.6666,-52.7314,57.58,92,100,9.22,CA,1660208181
38,Arraial do Cabo,-22.9661,-42.0278,66.47,79,25,40.69,BR,1660208182
39,Clyde River,70.4692,-68.5914,34.03,100,100,9.22,CA,1660208183
40,Mossamedes,-15.1961,12.1522,59.63,94,100,10.36,AO,1660208184
41,Yangi Marg`ilon,40.4272,71.7189,88.52,23,39,9.22,UZ,1660208185
42,Hermanus,-34.4187,19.2345,59.81,78,98,6.89,ZA,1660208186
43,Kahului,20.8947,-156.47,78.84,87,16,7.0,US,1660208187
44,Hobart,-42.8794,147.3294,53.46,82,75,6.91,AU,1660208188
45,Fort Nelson,58.8053,-122.7002,60.39,72,100,13.8,CA,1660207992
46,Sitka,57.0531,-135.33,55.89,96,99,3.38,US,1660208189
47,Port Elizabeth,-33.918,25.5701,65.1,80,40,3.44,ZA,1660208190
48,Gardner,42.5751,-71.9981,64.4,92,67,1.63,US,1660208094
49,São Filipe,14.8961,-24.4956,77.59,79,45,9.55,CV,1660207954
50,Tondon,10.3667,-13.35,77.68,92,98,1.32,GN,1660208193
51,Saint Paul Harbor,57.79,-152.4072,54.91,94,100,8.05,US,1660207961
52,Portland,45.5234,-122.6762,64.33,87,0,4.61,US,1660207833
53,The Pas,53.8251,-101.2541,51.82,93,0,9.22,CA,1660208255
54,Atuona,-9.8,-139.0333,77.0,70,9,22.37,PF,1660208256
55,Moro,26.6646,68.0016,106.68,31,78,17.47,PK,1660208257
56,Albany,42.6001,-73.9662,63.41,86,76,3.18,US,1660207842
57,San Rafael,-34.6177,-68.3301,46.08,49,0,1.95,AR,1660208259
58,Srīvardhan,18.0333,73.0167,81.39,85,100,22.79,IN,1660208261
59,Vrangel',42.7297,133.0839,71.92,90,76,3.22,RU,1660208262
60,Stromness,58.965,-3.296,58.96,83,94,3.0,GB,1660208263
61,Methóni,36.8197,21.7049,92.21,54,5,8.01,GR,1660208264
62,Moose Factory,51.2585,-80.6094,51.78,82,100,11.5,CA,1660208265
63,Mindelo,16.8901,-24.9804,76.55,78,20,14.97,CV,1660208266
64,Barrow,71.2906,-156.7887,40.84,94,51,17.74,US,1660208267
65,Cayenne,4.9333,-52.3333,77.09,1,75,0.0,GF,1660208268
66,Coquimbo,-29.9533,-71.3436,49.73,100,100,2.3,CL,1660207996
67,Pochutla,15.7432,-96.4661,76.82,91,100,3.24,MX,1660208269
68,Vila Velha,-20.3297,-40.2925,73.35,72,0,5.75,BR,1660208075
69,Saint-Augustin,51.226,-58.6502,54.23,95,0,4.7,CA,1660208271
70,Katsuura,35.1333,140.3,81.55,86,63,21.99,JP,1660208272
71,São João da Barra,-21.6403,-41.0511,65.14,43,79,12.01,BR,1660207955
72,Yellowknife,62.456,-114.3525,54.12,62,75,15.01,CA,1660208254
73,Sorong,-0.8833,131.25,81.28,76,85,2.66,ID,1660208018
74,Hong Kong,22.2855,114.1577,80.96,92,74,7.0,HK,1660208204
75,Kununurra,-15.7667,128.7333,87.78,22,2,6.91,AU,1660208212
76,Lagoa,39.05,-27.9833,70.47,70,9,3.06,PT,1660208277
77,Avarua,-21.2078,-159.775,71.65,83,75,10.36,CK,1660208278
78,Mar del Plata,-38.0023,-57.5575,46.87,95,100,8.05,AR,1660208279
79,Zeya,53.75,127.2667,63.88,86,83,2.44,RU,1660208280
80,Kaitangata,-46.2817,169.8464,36.32,89,42,6.8,NZ,1660208281
81,Severo-Kuril'sk,50.6789,156.125,57.0,90,88,6.98,RU,1660208039
82,Bambous Virieux,-20.3428,57.7575,73.65,56,40,18.41,MU,1660208282
83,Dikson,73.5069,80.5464,42.33,97,100,13.09,RU,1660208283
84,Vaini,-21.2,-175.2,71.76,94,75,12.66,TO,1660208284
85,Nemuro,43.3236,145.575,67.33,96,100,10.54,JP,1660208285
86,Zyryanka,65.75,150.85,72.37,43,100,13.11,RU,1660208286
87,East London,-33.0153,27.9116,61.74,82,20,9.22,ZA,1660208287
88,Saskylakh,71.9167,114.0833,49.75,61,100,13.69,RU,1660208288
89,Hirara,24.8,125.2833,88.07,70,20,8.05,JP,1660207953
90,Rocha,-34.4833,-54.3333,42.94,91,20,3.24,UY,1660208101
91,Caravelas,-17.7125,-39.2481,66.36,83,66,6.82,BR,1660208291
92,Lithgow,-33.4833,150.15,45.01,92,97,5.12,AU,1660208292
93,San Patricio,28.017,-97.5169,84.88,80,100,6.04,US,1660208293
94,Altea,38.5989,-0.0514,88.38,60,0,9.35,ES,1660208294
95,Isangel,-19.55,169.2667,69.3,62,1,14.76,VU,1660208295
96,Tuktoyaktuk,69.4541,-133.0374,46.13,89,100,12.35,CA,1660208296
97,Geraldton,-28.7667,114.6,66.61,52,0,10.36,AU,1660208297
98,Kapaa,22.0752,-159.319,77.11,86,77,4.0,US,1660208297
99,Puerto Carreño,6.189,-67.4859,72.66,97,100,4.52,CO,1660208298
100,Krasnosel'kup,65.7,82.4667,61.79,40,72,10.51,RU,1660208299
101,Mahébourg,-20.4081,57.7,73.69,56,40,18.41,MU,1660208360
102,Raudeberg,61.9875,5.1352,56.07,91,100,19.75,NO,1660208361
103,Grand Gaube,-20.0064,57.6608,73.8,59,60,11.99,MU,1660208362
104,Carnarvon,-24.8667,113.6333,71.87,31,0,10.09,AU,1660208363
105,Waipawa,-41.4122,175.5153,41.61,83,90,6.4,NZ,1660208364
106,Alice Springs,-23.7,133.8833,53.15,82,96,8.05,AU,1660208298
107,Olafsvik,64.8945,-23.7142,50.79,77,88,13.2,IS,1660208367
108,Bredasdorp,-34.5322,20.0403,60.19,74,100,2.71,ZA,1660208368
109,Polovinnoye,54.7914,65.9864,81.36,43,8,3.15,RU,1660208368
110,Newport,51.5877,-2.9984,81.09,53,0,8.19,GB,1660207870
111,Dingle,10.9995,122.6711,83.1,82,55,1.21,PH,1660208370
112,Mizdah,31.4451,12.9801,84.52,31,0,1.14,LY,1660208371
113,Haines Junction,60.7522,-137.5108,46.85,95,98,1.52,CA,1660208372
114,Pevek,69.7008,170.3133,40.82,97,57,7.87,RU,1660207969
115,Kaeng Khoi,14.5862,100.9976,77.54,89,100,6.44,TH,1660208217
116,Tongliao,43.6125,122.2653,79.39,49,0,7.43,CN,1660208375
117,Rome,43.2128,-75.4557,61.66,96,26,0.63,US,1660208377
118,Mataura,-46.1927,168.8643,31.01,97,2,3.36,NZ,1660208378
119,Hithadhoo,-0.6,73.0833,82.87,73,25,10.6,MV,1660208379
120,Samarai,-10.6167,150.6667,78.94,79,100,16.42,PG,1660208381
121,Manzini,-26.25,31.5,76.32,34,0,6.17,SZ,1660208382
122,Upernavik,72.7868,-56.1549,40.3,85,100,5.64,GL,1660208383
123,Kumul,42.8,93.45,105.87,11,6,10.07,CN,1660208383
124,Airai,-8.9266,125.4092,61.86,93,100,1.92,TL,1660208384
125,Saint George,37.1041,-113.5841,79.95,53,100,1.01,US,1660208385
126,Mayor Pablo Lagerenza,-19.9309,-60.7718,48.22,73,0,4.61,PY,1660208386
127,Zhigansk,66.7697,123.3711,61.43,52,97,21.03,RU,1660207971
128,Shache,38.4167,77.2406,89.6,31,70,0.58,CN,1660208389
129,Port Blair,11.6667,92.75,86.04,70,75,16.11,IN,1660208390
130,Kostomuksha,64.571,30.5767,69.22,63,100,15.35,RU,1660208390
131,Scottsbluff,41.8666,-103.6672,76.28,50,1,7.0,US,1660208391
132,Isla Mujeres,21.2311,-86.731,80.92,86,98,9.51,MX,1660208392
133,Tiksi,71.6872,128.8694,48.97,72,100,4.12,RU,1660207959
134,Dauphin,51.1494,-100.0502,48.34,82,0,0.0,CA,1660208202
135,Tessalit,20.1986,1.0114,96.01,26,12,8.37,ML,1660208395
136,Suicheng,33.8963,117.9331,95.72,64,73,5.39,CN,1660208396
137,Narsaq,60.9167,-46.05,45.23,88,100,2.15,GL,1660208397
138,Westport,41.1415,-73.3579,75.09,88,75,5.01,US,1660208332
139,Koslan,63.4564,48.8989,71.74,33,39,8.95,RU,1660208398
140,Omsukchan,62.5333,155.8,52.5,91,100,5.77,RU,1660208399
141,Aberdeen,57.1437,-2.0981,75.2,54,7,3.44,GB,1660208207
142,Kamaishi,39.2667,141.8833,77.27,95,82,10.31,JP,1660208401
143,Mount Gambier,-37.8333,140.7667,48.11,87,40,3.44,AU,1660208402
144,Bethel,41.3712,-73.414,73.76,81,20,3.44,US,1660208346
145,Senneterre,48.3835,-77.2328,50.16,99,25,5.55,CA,1660208404
146,Monreale,38.0801,13.2885,83.66,37,0,4.0,IT,1660208406
147,Hasaki,35.7333,140.8333,88.29,85,65,24.9,JP,1660208407
148,Belmonte,-15.8631,-38.8828,70.21,89,61,13.49,BR,1660208408
149,Grindavik,63.8424,-22.4338,50.47,87,75,12.66,IS,1660208410
150,Qaanaaq,77.484,-69.3632,34.86,71,100,5.86,GL,1660208412
151,Liuzhou,24.3126,109.3892,85.42,72,100,8.57,CN,1660208474
152,Siocon,7.7061,122.1353,83.98,74,60,3.29,PH,1660208475
153,Plettenberg Bay,-34.0527,23.3716,62.55,66,94,3.13,ZA,1660208477
154,Yerbogachën,61.2767,108.0108,68.0,64,55,6.6,RU,1660208478
155,Mareeba,-17.0,145.4333,68.72,87,0,3.96,AU,1660208479
156,Lebu,-37.6167,-73.65,44.02,86,0,4.54,CL,1660208480
157,Kupang,-10.1667,123.5833,79.63,78,62,11.34,ID,1660208482
158,Longyearbyen,78.2186,15.6401,49.84,71,75,14.97,SJ,1660207957
159,Bathsheba,13.2167,-59.5167,79.61,83,16,10.56,BB,1660208484
160,Lisala,2.15,21.5167,85.69,55,99,3.96,CD,1660208485
161,Tateyama,34.9833,139.8667,83.1,86,52,21.63,JP,1660208486
162,Aswān,24.0934,32.907,99.7,22,0,10.36,EG,1660208332
163,Talnakh,69.4865,88.3972,56.21,51,44,8.23,RU,1660208488
164,Buchs,47.1674,9.4779,81.19,63,16,1.01,CH,1660208489
165,Alberton,46.8168,-64.0654,63.52,87,100,5.91,CA,1660208490
166,Deputatsky,69.3,139.9,61.57,61,99,7.72,RU,1660208491
167,Plovdiv,42.15,24.75,80.67,47,17,3.44,BG,1660208493
168,Coyhaique,-45.5752,-72.0662,34.32,98,53,4.68,CL,1660208494
169,Nioki,-2.7167,17.6833,92.25,29,60,6.13,CD,1660208495
170,Brae,60.3964,-1.353,54.55,97,100,7.14,GB,1660208496
171,Vung Tau,10.346,107.0843,83.08,76,100,9.64,VN,1660208497
172,Sabinópolis,-18.6661,-43.0839,52.86,58,99,4.72,BR,1660208498
173,Horizonte,-4.1,-38.4833,74.61,94,71,3.96,BR,1660208499
174,Provideniya,64.3833,-173.3,54.9,84,11,2.8,RU,1660208500
175,Rabaul,-4.1967,152.1721,80.92,79,99,7.16,PG,1660208501
176,Flinders,-34.5833,150.8552,60.19,71,100,4.0,AU,1660208502
177,Bikin,46.8161,134.26,68.65,91,84,3.58,RU,1660208503
178,Saldanha,-33.0117,17.9442,59.49,78,100,7.38,ZA,1660208504
179,Kruisfontein,-34.0033,24.7314,62.89,64,100,3.67,ZA,1660208505
180,Kavieng,-2.5744,150.7967,81.68,77,96,8.37,PG,1660208506
181,Hambantota,6.1241,81.1185,93.54,49,20,19.57,LK,1660208229
182,Edson,53.5835,-116.4356,57.63,94,7,1.68,CA,1660208508
183,Gouré,13.9835,10.2704,86.86,46,100,13.02,NE,1660208509
184,Riohacha,11.5444,-72.9072,80.02,83,99,8.88,CO,1660208509
185,Gaoual,11.75,-13.2,78.94,89,69,2.48,GN,1660208510
186,Liverpool,53.4106,-2.9779,79.29,67,0,4.61,GB,1660208081
187,Ulladulla,-35.35,150.4667,56.8,69,100,9.91,AU,1660208512
188,Shebunino,46.4339,141.8603,69.39,88,61,9.31,RU,1660208513
189,Manavālakurichi,8.1333,77.3,84.33,69,99,18.54,IN,1660208514
190,Sola,-13.8833,167.55,78.01,77,89,29.19,VU,1660208515
191,Nova Serrana,-19.8761,-44.9836,46.94,68,50,3.36,BR,1660208515
192,Codrington,-38.2667,141.9667,48.79,77,92,6.93,AU,1660208516
193,Le Pradet,43.1066,6.0172,86.59,57,0,11.5,FR,1660208517
194,Nanortalik,60.1432,-45.2371,44.4,99,100,2.57,GL,1660208518
195,Tubigan,8.5322,124.3122,84.88,68,36,5.1,PH,1660208519
196,Itagibá,-14.2836,-39.8428,57.9,90,29,1.79,BR,1660208520
197,Udachny,66.4167,112.4,50.61,90,100,15.08,RU,1660208521
198,Dalby,-27.1833,151.2667,58.98,61,87,1.01,AU,1660208522
199,Bachatskiy,54.2927,86.1285,79.9,49,51,4.9,RU,1660208523
200,Ponta do Sol,32.6667,-17.1,74.71,68,22,1.41,PT,1660208524
201,Vao,-22.6667,167.4833,68.59,59,0,20.38,NC,1660208585
202,Miyata,33.7167,130.6667,91.02,72,100,8.68,JP,1660208586
203,Witu,-2.3889,40.4382,80.76,59,58,16.96,KE,1660208587
204,Kuching,1.55,110.3333,91.62,62,40,3.44,MY,1660208588
205,Havelock,34.8791,-76.9013,82.38,92,30,8.61,US,1660208589
206,San Cristobal,7.7669,-72.225,63.32,90,98,3.42,VE,1660208591
207,Lyubech,51.7026,30.6569,74.03,59,99,12.41,UA,1660208592
208,Sittwe,20.15,92.9,80.62,84,99,7.85,MM,1660208593
209,Hāgere Hiywet,8.9833,37.85,63.55,85,100,5.1,ET,1660208594
210,Sabang,5.8933,95.3214,83.35,72,57,18.88,ID,1660208595
211,Mitsamiouli,-11.3847,43.2844,77.36,68,8,5.06,KM,1660208596
212,Mago,53.2514,140.1822,63.39,88,90,3.31,RU,1660208597
213,Ilulissat,69.2167,-51.1,41.02,87,75,0.0,GL,1660208597
214,Changde,29.0464,111.6783,101.01,41,86,7.85,CN,1660208421
215,Coahuayana Viejo,18.7333,-103.6833,76.84,87,100,2.98,MX,1660208599
216,Inverness,57.4791,-4.224,67.78,70,20,6.91,GB,1660208413
217,Altay,47.8667,88.1167,86.92,20,3,14.43,CN,1660208601
218,Cerea,45.1921,11.2103,83.93,41,36,11.16,IT,1660208602
219,Alofi,-19.0595,-169.9187,77.45,71,10,13.91,NU,1660208602
220,Wanxian,30.8039,108.3897,99.7,46,91,1.12,CN,1660208603
221,Kaeo,-35.1,173.7833,50.32,83,28,7.09,NZ,1660208604
222,Jonesboro,35.8423,-90.7043,73.09,94,6,5.99,US,1660208402
223,Kalmunai,7.4167,81.8167,93.34,45,90,3.89,LK,1660208606
224,Yar-Sale,66.8333,70.8333,63.9,44,100,11.99,RU,1660208607
225,Biscarrosse,44.3945,-1.1672,84.15,34,0,4.61,FR,1660208607
226,Beloha,-25.1667,45.05,81.63,25,0,11.54,MG,1660208609
227,Ust-Maya,60.4167,134.5333,65.1,66,100,3.62,RU,1660208610
228,Chokurdakh,70.6333,147.9167,57.67,70,100,11.41,RU,1660208611
229,Cockburn Town,21.4612,-71.1419,81.5,74,12,16.24,TC,1660208612
230,Imbituba,-28.24,-48.6703,56.08,94,36,5.99,BR,1660208613
231,Panzhihua,26.5851,101.7128,92.41,43,90,1.77,CN,1660208614
232,Tigil',57.8,158.6667,57.81,94,100,5.3,RU,1660208615
233,Touba,8.2833,-7.6833,73.53,89,92,7.23,CI,1660208616
234,Nikolskoye,59.7035,30.7861,74.88,41,99,10.47,RU,1660208616
235,Calabozo,8.9242,-67.4293,70.16,97,100,2.39,VE,1660208617
236,Baracoa,20.3467,-74.4958,78.13,86,56,8.14,CU,1660208618
237,Nakhon Nayok,14.1667,101.1,79.18,87,100,3.89,TH,1660208619
238,Saint-Philippe,-21.3585,55.7679,74.79,75,78,14.27,RE,1660208620
239,Port Lincoln,-34.7333,135.8667,54.45,79,19,18.79,AU,1660208621
240,Rojhan,28.6868,69.9534,104.16,33,100,13.65,PK,1660208622
241,Thinadhoo,0.5333,72.9333,82.62,76,23,8.72,MV,1660208623
242,Namwala,-15.7504,26.4384,77.94,26,0,7.29,ZM,1660208624
243,Kolosovka,56.4678,73.611,79.05,54,28,7.43,RU,1660208625
244,Houma,29.5958,-90.7195,76.01,94,100,6.91,US,1660208626
245,Cherskiy,68.75,161.3,62.87,54,100,7.14,RU,1660208627
246,Iqaluit,63.7506,-68.5145,40.69,86,12,3.0,CA,1660208479
247,Margate,51.3813,1.3862,77.31,80,5,1.99,GB,1660208629
248,Norman Wells,65.282,-126.8329,39.24,87,75,3.44,CA,1660208081
249,Biak,-0.9131,122.8766,79.34,83,85,4.03,ID,1660208631
250,Tasiilaq,65.6145,-37.6368,37.56,75,99,2.28,GL,1660208693
251,Goubellat,36.5418,9.6633,87.33,40,0,4.79,TN,1660208694
252,Lavrentiya,65.5833,-171.0,41.81,98,60,3.2,RU,1660208695
253,Martapura,-3.4167,114.85,89.69,62,40,3.44,ID,1660208696
254,George Town,5.4112,100.3354,89.53,70,20,12.66,MY,1660208697
255,Masallātah,32.6167,14.0,83.1,51,0,5.23,LY,1660208699
256,Mahrīz,31.5917,54.4318,91.89,19,0,10.38,IR,1660208699
257,Elverum,60.8819,11.5623,73.99,41,33,8.84,NO,1660208700
258,Saint Lawrence,36.0553,14.204,85.41,72,0,3.0,MT,1660208701
259,Loikaw,19.6742,97.2094,80.1,79,51,5.39,MM,1660208702
260,Cape Town,-33.9258,18.4232,60.39,81,100,10.0,ZA,1660208689
261,Tautira,-17.7333,-149.15,76.98,78,4,15.84,PF,1660208480
262,Bandrele,-12.9067,45.1914,80.35,61,20,14.97,YT,1660208705
263,Shubarkuduk,49.1447,56.4872,89.62,23,0,7.43,KZ,1660208706
264,Ust'-Ishim,57.6935,71.1665,78.87,40,13,4.25,RU,1660208707
265,Cidreira,-30.1811,-50.2056,53.89,88,49,4.59,BR,1660208708
266,Esim,4.8699,-2.2405,77.67,76,100,9.28,GH,1660208709
267,Shenjiamen,29.9576,122.298,83.82,81,74,14.94,CN,1660208710
268,Carauari,-4.8828,-66.8958,68.11,99,70,2.46,BR,1660208710
269,Zamora,-4.0692,-78.9567,65.03,100,100,3.2,EC,1660208712
270,Seydi,39.4816,62.9137,92.82,16,0,15.57,TM,1660208713
271,Herat Province,34.5,62.0,83.79,16,0,37.71,AF,1660208430
272,Lompoc,34.6391,-120.4579,60.53,98,100,3.44,US,1660208715
273,Faanui,-16.4833,-151.75,78.04,72,8,9.71,PF,1660208716
274,Mitchell,43.7094,-98.0298,72.1,92,72,1.99,US,1660208425
275,Hofn,64.2539,-15.2082,51.08,81,12,2.57,IS,1660208717
276,Natitingou,10.3042,1.3796,77.02,79,94,10.13,BJ,1660208718
277,Prainha,-1.8,-53.48,71.92,74,91,3.18,BR,1660208719
278,Konde,-4.95,39.75,78.58,69,45,10.69,TZ,1660208720
279,Naze,28.3667,129.4833,81.75,75,100,2.15,JP,1660208722
280,Puerto del Rosario,28.5004,-13.8627,73.15,68,40,14.97,ES,1660208723
281,Luís Correia,-2.8792,-41.6669,74.93,81,48,14.16,BR,1660208724
282,Souillac,-20.5167,57.5167,70.25,65,42,20.18,MU,1660208473
283,Paamiut,61.994,-49.6678,42.58,96,100,9.78,GL,1660208726
284,Raipur,21.2333,81.6333,80.74,83,100,14.97,IN,1660208727
285,Kiunga,-6.1219,141.2906,74.52,98,82,2.91,PG,1660208728
286,Dolores,-36.3132,-57.6792,40.87,93,0,7.65,AR,1660208729
287,Bara,10.3744,10.7288,70.38,90,100,7.54,NG,1660208730
288,Umm Hājar,13.2954,19.6966,81.28,64,100,8.25,TD,1660208730
289,Santiago del Estero,-27.7951,-64.2615,48.54,62,39,8.88,AR,1660208726
290,Sioux Lookout,50.1001,-91.917,47.3,71,0,2.73,CA,1660208733
291,Tocopilla,-22.092,-70.1979,57.16,70,37,1.88,CL,1660208515
292,Terrace Bay,48.7834,-87.1,48.38,73,0,7.31,CA,1660208734
293,Chase,50.8165,-119.6857,66.07,78,52,1.66,CA,1660208735
294,Luang Prabang,19.8856,102.1347,74.53,100,100,1.59,LA,1660208736
295,Vikhorevka,56.1201,101.1636,65.79,71,89,7.34,RU,1660208737
296,Plaster Rock,46.9065,-67.39,63.12,97,100,3.69,CA,1660208738
297,Honningsvåg,70.9821,25.9704,55.15,76,75,27.63,NO,1660208592
298,Along,28.1667,94.7667,96.31,49,49,5.3,IN,1660208740
299,Anadyr,64.75,177.4833,57.96,75,100,3.6,RU,1660208741
300,Kawalu,-7.3817,108.2082,77.59,86,75,5.53,ID,1660208803
301,La Romana,18.4273,-68.9728,76.75,88,100,7.74,DO,1660208803
302,Lata,40.1629,-8.3327,75.06,53,0,2.3,PT,1660208805
303,Simao,22.7886,100.9748,79.41,80,77,3.22,CN,1660208805
304,Banda Aceh,5.5577,95.3222,85.95,64,89,14.7,ID,1660208806
305,Plouzané,48.3833,-4.6167,79.12,53,0,6.91,FR,1660208572
306,Kindu,-2.95,25.95,94.73,18,94,5.95,CD,1660208808
307,Venado Tuerto,-33.7456,-61.9688,43.77,92,0,9.55,AR,1660208808
308,Bikaner,28.0167,73.3,96.28,45,78,20.78,IN,1660208809
309,Gamboma,-1.8764,15.8644,88.07,39,100,8.23,CG,1660208810
310,San Francisco,37.7749,-122.4194,64.85,92,20,16.11,US,1660208561
311,Meulaboh,4.1363,96.1285,84.0,65,99,5.14,ID,1660208813
312,College,64.8569,-147.8028,48.15,81,20,6.91,US,1660208814
313,Pacific Grove,36.6177,-121.9166,63.01,89,6,1.99,US,1660208815
314,Kachug,53.9606,105.8817,64.83,77,87,6.4,RU,1660208816
315,Huty,50.1332,35.3439,86.43,36,95,17.67,UA,1660208817
316,Mahibadhoo,3.7833,72.9667,82.0,75,42,5.79,MV,1660208818
317,Syracuse,37.0881,15.2792,83.57,59,2,5.46,IT,1660208449
318,Krasnorechenskiy,44.6265,135.3532,65.08,94,100,4.34,RU,1660208819
319,Bandarbeyla,9.4942,50.8122,85.44,57,100,28.39,SO,1660208820
320,Ina,35.8276,137.9538,83.46,67,87,6.69,JP,1660208536
321,Itoman,26.1247,127.6694,87.82,70,75,9.22,JP,1660208822
322,‘Ewa Beach,21.3156,-158.0072,80.55,66,0,20.71,US,1660208823
323,Sheltozero,61.3667,35.3667,69.6,52,100,14.99,RU,1660208824
324,Bryan,30.6744,-96.37,76.89,85,0,0.0,US,1660208780
325,Ndola,-12.9587,28.6366,75.87,23,6,8.23,ZM,1660208825
326,Okhotsk,59.3833,143.3,57.09,95,100,6.13,RU,1660208826
327,Freeport,40.6576,-73.5832,77.02,82,100,6.44,US,1660208253
328,Longyan,25.1072,117.0225,85.37,69,81,3.98,CN,1660208828
329,Hazorasp,41.3194,61.0742,89.44,18,0,12.48,UZ,1660208828
330,Gornyye Klyuchi,45.25,133.5,69.69,92,74,11.05,RU,1660208829
331,Marinette,45.1,-87.6307,61.29,88,100,6.91,US,1660208830
332,Vanimo,-2.6741,141.3028,79.3,83,64,3.27,PG,1660208831
333,Sur,22.5667,59.5289,96.24,50,100,4.74,OM,1660208833
334,Fort Frances,48.5999,-93.4003,50.05,68,0,0.0,CA,1660208834
335,Paka,4.6374,103.4368,86.81,67,98,13.04,MY,1660208835
336,Sokol,59.4617,40.1206,71.02,44,29,7.83,RU,1660208837
337,Ambo,-10.1308,-76.2047,57.56,89,94,0.85,PE,1660208837
338,Adré,13.4667,22.2,82.0,60,95,4.21,TD,1660208838
339,Tete,-16.1564,33.5867,82.49,47,40,9.22,MZ,1660208839
340,Impfondo,1.6381,18.0667,85.19,55,98,5.68,CG,1660208841
341,Buluang,13.3068,123.3425,81.66,84,99,1.79,PH,1660208842
342,Prince Rupert,54.3161,-130.3201,56.26,93,25,6.78,CA,1660208843
343,Ilebo,-4.3167,20.5833,96.8,15,96,0.69,CD,1660208844
344,Liuhe,42.2401,125.7172,71.08,91,52,6.78,CN,1660208845
345,Pangoa,-12.1167,-73.0,61.03,99,35,1.72,PE,1660208846
346,Shakawe,-18.3667,21.85,81.93,11,0,6.58,BW,1660208847
347,Minas,-34.3759,-55.2377,41.0,91,10,5.35,UY,1660208847
348,Boksitogorsk,59.474,33.8485,72.61,42,78,9.19,RU,1660208849
349,Arrondissement de Bourges,47.25,2.4167,81.64,23,1,13.0,FR,1660208825
350,Iquitos,-3.7481,-73.2472,70.56,98,100,3.09,PE,1660208695
351,Mayo,38.8876,-76.5119,74.98,93,75,1.99,US,1660208911
352,Shahrud,36.4182,54.9763,84.67,17,0,11.56,IR,1660208912
353,Vestmannaeyjar,63.4427,-20.2734,50.99,87,75,11.5,IS,1660208913
354,Fairbanks,64.8378,-147.7164,48.16,81,0,6.91,US,1660208733
355,Korla,41.7597,86.1469,100.26,16,78,16.08,CN,1660208915
356,Alghero,40.5589,8.3181,89.69,37,20,4.61,IT,1660208916
357,Suba,10.8438,121.0102,84.47,66,24,4.99,PH,1660208917
358,Sinnamary,5.3833,-52.95,75.99,89,48,5.84,GF,1660208918
359,Helena,46.5927,-112.0361,67.41,80,94,3.0,US,1660208666
360,Kendallville,41.4414,-85.265,62.98,97,0,3.44,US,1660208920
361,Berdigestyakh,62.0989,126.6992,71.82,60,54,5.21,RU,1660208921
362,Ostrovnoy,68.0531,39.5131,59.85,88,100,28.9,RU,1660208922
363,Sembakung,3.8167,117.25,80.56,85,95,4.25,ID,1660208923
364,Tiarei,-17.5333,-149.3333,73.42,78,5,13.35,PF,1660208924
365,Pangnirtung,66.1451,-65.7125,43.02,85,82,1.66,CA,1660208925
366,Charters Towers,-20.1,146.2667,64.2,68,19,13.27,AU,1660208926
367,Kailua,21.4022,-157.7394,80.58,79,75,11.5,US,1660208775
368,Aracati,-4.5617,-37.7697,72.18,85,50,6.15,BR,1660208927
369,Buckeye,33.3703,-112.5838,88.3,54,95,6.91,US,1660208899
370,Ola,59.5833,151.2833,59.14,89,100,1.83,RU,1660208929
371,Grajaú,-5.8194,-46.1386,67.53,60,33,2.13,BR,1660208930
372,Montepuez,-13.1256,38.9997,81.61,32,0,9.44,MZ,1660208931
373,Yuncheng,35.0231,110.9928,100.24,37,27,10.85,CN,1660208932
374,Saint-Joseph,-21.3667,55.6167,73.78,71,60,15.01,RE,1660208933
375,Marzuq,14.4,46.4667,85.53,49,78,8.63,YE,1660208934
376,Southbridge,42.0751,-72.0334,69.06,97,72,4.0,US,1660208934
377,Price,39.5994,-110.8107,73.11,60,100,14.97,US,1660208742
378,Chotila,22.4167,71.1833,79.27,90,100,15.35,IN,1660208937
379,Bamboo,18.3922,-77.2643,72.66,86,41,10.4,JM,1660208938
380,Fort-Shevchenko,44.5086,50.263,90.88,31,0,17.69,KZ,1660208939
381,Kommunar,59.6206,30.39,74.52,43,98,11.43,RU,1660208940
382,Blatná,49.4249,13.8818,76.3,42,66,8.88,CZ,1660208941
383,Nago,26.5881,127.9761,84.63,75,93,2.57,JP,1660208943
384,Swan Hill,-35.3378,143.5544,51.57,76,70,7.52,AU,1660208944
385,Marawi,7.9986,124.2928,75.72,82,66,3.36,PH,1660208945
386,Ullapool,57.8987,-5.1604,64.35,57,21,7.31,GB,1660208946
387,Santa Fe,-31.6333,-60.7,48.02,85,0,8.01,AR,1660208828
388,Lereşti,45.3333,25.0667,71.55,45,42,1.36,RO,1660208948
389,Ayan,56.45,138.1667,55.6,98,100,9.48,RU,1660208948
390,Bilibino,68.0546,166.4372,64.13,71,100,1.5,RU,1660208949
391,Laas,46.6166,10.7002,71.69,60,82,0.78,IT,1660208951
392,Ajdabiya,30.7554,20.2263,89.38,32,0,10.42,LY,1660208952
393,Salinas,36.6777,-121.6555,64.49,77,0,4.61,US,1660208953
394,Outlook,51.5001,-107.0513,70.5,45,100,12.64,CA,1660208791
395,Pemba,-12.974,40.5178,76.66,68,1,15.5,MZ,1660208954
396,Te Anau,-45.4167,167.7167,32.29,93,8,1.25,NZ,1660208955
397,Taoudenni,22.6783,-3.9836,103.15,11,5,5.08,ML,1660208956
398,Mehamn,71.0357,27.8492,55.31,87,75,18.41,NO,1660208957
399,Nara,34.6851,135.8049,92.97,32,40,4.34,JP,1660208668
400,Tutóia,-2.7619,-42.2744,77.09,80,77,12.15,BR,1660208959
401,Pisco,-13.7,-76.2167,58.01,86,43,3.85,PE,1660209020
402,High Level,58.5169,-117.136,60.03,62,68,9.28,CA,1660209007
403,Vendôme,47.8,1.0667,82.89,40,1,13.96,FR,1660209023
404,Broken Hill,-31.95,141.4333,55.67,34,96,14.25,AU,1660209025
405,Saint-François,46.4154,3.9054,80.67,41,0,6.91,FR,1660209026
406,Kristinestad,62.2743,21.376,66.24,74,94,4.72,FI,1660209027
407,Dunedin,-45.8742,170.5036,40.8,82,47,4.0,NZ,1660209028
408,Madīnat Sittah Uktūbar,29.8167,31.05,87.4,25,0,9.91,EG,1660209029
409,Albury,-36.0833,146.9167,51.85,96,100,6.91,AU,1660208761
410,Praia da Vitória,38.7333,-27.0667,73.76,80,79,7.14,PT,1660209030
411,Sítio Novo do Tocantins,-5.5183,-47.4611,67.93,54,18,1.68,BR,1660209031
412,Torit,4.4133,32.5678,81.97,66,80,3.49,SS,1660209032
413,Noyabrsk,63.1994,75.4507,66.54,39,98,4.52,RU,1660209033
414,Choma,-16.8065,26.9531,75.45,25,0,7.0,ZM,1660209034
415,Kieta,-6.2167,155.6333,79.77,81,100,4.23,PG,1660209035
416,Zonguldak,41.25,31.8333,72.45,48,13,11.48,TR,1660209036
417,Tymovskoye,50.8456,142.655,65.23,75,69,1.99,RU,1660209037
418,Barcelos,41.5388,-8.6151,71.92,93,87,3.6,PT,1660209018
419,Hualmay,-11.0964,-77.6139,60.1,86,91,5.57,PE,1660209039
420,Verkh-Suetka,53.3,80.05,76.42,54,98,4.14,RU,1660209040
421,Bintulu,3.1667,113.0333,85.28,73,41,8.3,MY,1660208836
422,General Roca,-39.0333,-67.5833,45.18,57,0,10.0,AR,1660209041
423,Eureka,40.8021,-124.1637,62.26,89,40,1.01,US,1660208795
424,Yoichi,43.2039,140.7703,73.71,78,85,3.36,JP,1660209043
425,Sungai Besar,3.6746,100.9867,86.52,66,82,7.99,MY,1660209044
426,Gizo Government Station,-8.103,156.8419,81.09,77,100,2.86,SB,1660209045
427,Byron Bay,-28.65,153.6167,58.96,81,83,5.3,AU,1660209046
428,Bahía Blanca,-38.7196,-62.2724,48.72,65,0,16.46,AR,1660209048
429,Otse,-25.0167,25.7333,68.79,24,0,7.74,BW,1660209049
430,Ouricuri,-7.8825,-40.0817,64.94,75,5,3.47,BR,1660208803
431,Manggar,-2.8833,108.2667,84.2,74,36,12.8,ID,1660209050
432,Antofagasta,-23.65,-70.4,56.48,85,70,1.39,CL,1660209051
433,Manthani,18.65,79.6667,86.04,71,99,15.14,IN,1660209052
434,Tres Arroyos,-38.3739,-60.2798,44.19,77,0,15.66,AR,1660209054
435,Villazón,-22.0866,-65.5942,31.55,34,0,1.25,BO,1660209055
436,Narón,43.5167,-8.1528,73.9,88,23,5.5,ES,1660209056
437,Xiaoweizhai,26.1903,107.5125,80.38,82,75,5.68,CN,1660209057
438,Port Hardy,50.6996,-127.4199,58.98,96,100,2.55,CA,1660209058
439,Kothi,24.75,80.7833,86.41,65,92,12.91,IN,1660209060
440,Baykit,61.67,96.37,67.37,37,25,10.02,RU,1660209061
441,Araguari,-18.6472,-48.1872,44.06,74,60,4.99,BR,1660209062
442,Pravda,46.9396,142.009,69.24,81,76,9.15,RU,1660209063
443,Repatriación,-25.5333,-55.95,46.72,97,11,4.97,PY,1660209064
444,Japura,-0.3167,102.35,87.19,67,100,3.58,ID,1660209065
445,Verkhnevilyuysk,63.4453,120.3167,63.72,76,100,5.19,RU,1660209066
446,Buraidah,26.326,43.975,108.41,13,9,15.12,SA,1660209047
447,Itaporanga,-7.3044,-38.1503,67.41,85,7,2.21,BR,1660209067
448,Cabedelo,-6.9811,-34.8339,72.27,84,56,4.0,BR,1660209068
449,Pasni,25.2631,63.471,93.18,48,99,4.72,PK,1660209069
450,Normandin,48.8333,-72.5321,57.04,96,66,4.18,CA,1660209070
451,Rāy,23.6833,85.05,75.97,90,100,9.44,IN,1660209131
452,Vardø,70.3705,31.1107,57.18,72,0,33.38,NO,1660209132
453,Ghanzi,-21.5667,21.7833,77.14,13,0,10.69,BW,1660209134
454,Mahon,39.8885,4.2658,88.36,51,0,5.75,ES,1660209135
455,Yulara,-25.2406,130.9889,59.18,23,0,8.68,AU,1660209136
456,Buala,-8.145,159.5921,79.9,83,37,6.38,SB,1660209136
457,Bonavista,48.6499,-53.1147,55.6,77,40,7.25,CA,1660209137
458,Schwarzenberg,50.55,12.7833,77.58,50,15,7.72,DE,1660209138
459,Vancouver,49.2497,-123.1193,66.74,81,41,11.01,CA,1660208942
460,Grande Prairie,55.1667,-118.8027,58.89,70,0,5.08,CA,1660209140
461,Arnprior,45.4334,-76.3494,62.65,77,79,4.7,CA,1660209141
462,Bangui,4.3612,18.555,76.46,84,100,5.14,CF,1660209142
463,Naifaru,5.4444,73.3657,82.0,80,22,9.48,MV,1660209143
464,Inhambane,-23.865,35.3833,78.13,55,0,7.83,MZ,1660209144
465,Winslow,35.0242,-110.6974,69.98,78,0,5.75,US,1660209145
466,Noumea,-22.2763,166.4572,73.0,99,62,14.43,NC,1660209146
467,Piranshahr,36.701,45.1413,94.39,19,0,0.89,IR,1660209147
468,Skjervøy,70.0311,20.9714,55.4,82,100,29.68,NO,1660209148
469,Inta,66.0317,60.1659,63.16,61,85,8.34,RU,1660209149
470,Iquique,-20.2208,-70.1431,59.04,76,14,2.71,CL,1660209150
471,Bengkulu,-3.8004,102.2655,83.3,73,37,4.83,ID,1660209151
472,Ganzhou,28.8184,115.4327,98.24,40,71,8.32,CN,1660209152
473,Gemena,3.25,19.7667,78.57,74,99,3.8,CD,1660209153
474,Elizabeth City,36.2946,-76.2511,76.01,96,0,5.75,US,1660208954
475,Groton,41.3501,-72.0784,73.74,81,100,6.91,US,1660209042
476,El Rosario,24.2556,-107.1828,76.19,73,91,2.44,MX,1660209155
477,Neepawa,50.2289,-99.4664,52.14,87,100,2.98,CA,1660209156
478,Santo Antônio do Tauá,-1.1519,-48.1294,76.95,98,67,2.08,BR,1660209157
479,Urengoy,65.9667,78.3667,62.87,44,89,4.09,RU,1660209158
480,Los Llanos de Aridane,28.6585,-17.9182,69.55,87,20,11.5,ES,1660209159
481,Daru,-9.0763,143.2092,76.53,86,93,16.37,PG,1660209160
482,Esperance,-33.8667,121.9,56.48,67,71,12.44,AU,1660209070
483,Mitú,1.1983,-70.1733,68.95,98,61,1.7,CO,1660209162
484,Moindou,-21.6924,165.677,65.84,64,6,8.55,NC,1660209162
485,Acapulco de Juárez,16.8634,-99.8901,80.42,83,100,2.3,MX,1660209143
486,Shiraz,29.6036,52.5388,98.04,18,20,0.0,IR,1660209164
487,Canindé,-4.3589,-39.3117,66.97,93,92,3.6,BR,1660209165
488,Chapais,49.7834,-74.8492,53.38,91,78,7.67,CA,1660209165
489,Aksay,47.26,39.87,93.42,16,83,14.0,RU,1660209166
490,Khovd,48.0056,91.6419,77.88,32,28,12.15,MN,1660209167
491,Camargo,27.6667,-105.1667,75.2,52,27,3.2,MX,1660209168
492,Kavaratti,10.5669,72.642,81.1,85,64,18.95,IN,1660209169
493,Avilés,43.5547,-5.9248,81.37,83,0,3.44,ES,1660209139
494,Yegorlykskaya,46.5656,40.6562,94.71,17,60,19.71,RU,1660209171
495,Amapá,1.0,-52.0,69.22,99,29,0.58,BR,1660209173
496,Necochea,-38.5473,-58.7368,42.21,76,0,13.13,AR,1660209174
497,Omboué,-1.5746,9.2618,76.69,72,100,7.99,GA,1660209174
498,Atagay,55.1033,99.3875,69.96,51,93,8.34,RU,1660209175
499,Northam,51.0333,-4.2167,77.25,42,0,8.14,GB,1660209176
500,Ust-Nera,64.5667,143.2,67.05,55,100,2.06,RU,1660209177
501,Ingham,42.6,-84.3833,67.95,77,100,6.91,US,1660209238
502,Tura,25.5198,90.2201,88.11,59,60,5.61,IN,1660209239
503,Ampanihy,-24.7,44.75,81.1,28,0,5.12,MG,1660209240
504,Bambanglipuro,-7.95,110.2833,80.04,81,53,13.96,ID,1660209241
505,Staroye Drozhzhanoye,54.7266,47.5677,72.81,66,100,6.78,RU,1660209242
506,Valparaíso,-33.0393,-71.6273,50.47,99,100,4.61,CL,1660209242
507,Tilichiki,60.4667,166.1,51.51,95,100,5.7,RU,1660209243
508,Atar,20.5169,-13.0499,91.87,18,100,9.31,MR,1660209244
509,Richards Bay,-28.783,32.0377,74.41,58,1,6.71,ZA,1660209245
510,Namatanai,-3.6667,152.4333,79.97,80,89,6.71,PG,1660209246
511,Vangaindrano,-23.35,47.6,71.1,67,94,7.18,MG,1660209247
512,Slave Lake,55.2834,-114.769,58.98,100,0,0.0,CA,1660209248
513,Linden,6.0,-58.3,72.81,97,4,1.52,GY,1660209249
514,Vila Franca do Campo,37.7167,-25.4333,73.2,69,34,7.61,PT,1660209250
515,Merauke,-8.4667,140.3333,79.57,77,99,19.44,ID,1660209251
516,Teluknaga,-6.0989,106.6381,93.38,59,20,10.36,ID,1660209252
517,Kiama,-34.6833,150.8667,60.39,73,100,1.01,AU,1660209253
518,Hondomachi-hondo,32.45,130.2,85.12,77,100,7.56,JP,1660209254
519,Arrondissement de Figeac,44.75,1.9167,87.76,28,0,3.18,FR,1660209255
520,Saint Anthony,45.0205,-93.218,66.09,79,0,4.61,US,1660209256
521,Sørland,67.667,12.6934,51.66,88,98,34.9,NO,1660209257
522,Waddān,29.1614,16.139,87.13,27,0,1.88,LY,1660209258
523,Yukhnov,54.7444,35.2297,74.19,45,3,7.72,RU,1660209258
524,Rafaela,-31.2503,-61.4867,41.99,60,27,3.0,AR,1660209259
525,Mokhsogollokh,61.4681,128.9203,67.73,70,99,4.29,RU,1660209260
526,Kantunilkín,21.0917,-87.45,75.0,99,95,3.04,MX,1660209261
527,Lensk,60.7253,114.9278,67.51,67,100,3.85,RU,1660209262
528,Forio,40.7342,13.8646,86.29,69,53,3.31,IT,1660209263
529,Palmer,42.1584,-72.3287,67.98,82,100,3.44,US,1660209264
530,Sisimiut,66.9395,-53.6735,41.02,80,75,1.1,GL,1660209265
531,Luanda,-8.8368,13.2343,72.21,74,88,2.15,AO,1660209266
532,Leningradskiy,69.3833,178.4167,46.63,81,86,6.62,RU,1660209267
533,Cooma,-36.2333,149.1333,42.15,90,100,6.8,AU,1660209268
534,Mapiri,-15.25,-68.1667,57.4,99,31,0.87,BO,1660209269
535,Husavik,66.0449,-17.3389,49.69,77,100,0.92,IS,1660209270
536,Henties Bay,-22.116,14.2845,58.37,76,0,9.69,NA,1660209272
537,Kolāras,25.2333,77.6,85.06,68,100,15.61,IN,1660209273
538,Egvekinot,66.3167,-179.1667,51.24,88,50,4.23,RU,1660209274
539,Muros,42.7762,-9.0603,67.08,92,97,5.32,ES,1660209274
540,Pombia,45.653,8.6336,85.14,46,0,5.75,IT,1660209275
541,Guerrero Negro,27.9769,-114.0611,71.71,78,96,10.16,MX,1660209276
542,Ober-Ramstadt,49.8336,8.7519,82.04,34,6,8.72,DE,1660209277
543,Nieuw Amsterdam,5.8833,-55.0833,77.02,93,20,0.0,SR,1660209278
544,Vicuña,-30.0319,-70.7081,42.53,17,100,5.3,CL,1660209279
545,Praia,14.9215,-23.5087,81.14,69,20,10.36,CV,1660209280
546,Synya,65.3718,58.0387,61.77,60,93,1.9,RU,1660209281
547,Comodoro Rivadavia,-45.8667,-67.5,48.06,61,0,3.44,AR,1660209281
548,Aitape,-3.1374,142.3475,80.19,81,79,2.57,PG,1660209282
549,Camaná,-16.6228,-72.7111,58.77,84,56,7.25,PE,1660209283
550,Lékoni,-1.5843,14.2591,81.79,49,57,10.67,GA,1660209345
551,Sangmélima,2.9333,11.9833,69.85,96,100,3.51,CM,1660209346
552,Vilhena,-12.7406,-60.1458,53.98,61,76,3.27,BR,1660209347
553,Maceió,-9.6658,-35.7353,69.24,94,0,3.44,BR,1660209129
554,Namie,37.4833,141.0,86.54,76,43,1.01,JP,1660209349
555,Walvis Bay,-22.9575,14.5053,49.15,100,0,4.61,NA,1660209350
556,Aykino,62.2248,49.9922,71.26,34,12,10.0,RU,1660209351
557,Calbuco,-41.768,-73.1273,47.41,91,100,14.27,CL,1660209306
558,Safi,32.2994,-9.2372,72.63,72,2,10.4,MA,1660209352
